[{"name": "Bike Docking Station Abusali Street GCC Park opp R5 Police Station", "id": "953729d0-16d9-4878-bf16-c1e23d024ba9", "location": {"coordinates": [80.199119, 13.049899], "type": "Point"}, "stationName": "Abusali Street GCC Park opp R5 Police Station"}, {"name": "Bike Docking Station Acropolis", "id": "953729d0-16d9-4878-bf16-c1e23d024ba9", "location": {"coordinates": [80.260317, 13.04517], "type": "Point"}, "stationName": "Acropolis"}, {"name": "Bike Docking Station AG DMS Metro", "id": "953729d0-16d9-4878-bf16-c1e23d024ba9", "location": {"coordinates": [80.248516, 13.046229], "type": "Point"}, "stationName": "AG DMS Metro"}, {"name": "Bike Docking Station AGS Theatre - GN Chetty Road", "id": "953729d0-16d9-4878-bf16-c1e23d024ba9", "location": {"coordinates": [80.245193, 13.047747], "type": "Point"}, "stationName": "AGS Theatre - GN Chetty Road"}, {"name": "Bike Docking Station Alandur Metro", "id": "953729d0-16d9-4878-bf16-c1e23d024ba9", "location": {"coordinates": [80.2010611, 13.0035349], "type": "Point"}, "stationName": "Alandur Metro"}, {"name": "Bike Docking Station Amma Arangam (Ware House)", "id": "953729d0-16d9-4878-bf16-c1e23d024ba9", "location": {"coordinates": [80.219737, 13.082432], "type": "Point"}, "stationName": "Amma Arangam (Ware House)"}, {"name": "Bike Docking Station Anna Centenary Library", "id": "953729d0-16d9-4878-bf16-c1e23d024ba9", "location": {"coordinates": [80.24069, 13.01701], "type": "Point"}, "stationName": "Anna Centenary Library"}, {"name": "Bike Docking Station Anna Nagar 18th Main Road", "id": "953729d0-16d9-4878-bf16-c1e23d024ba9", "location": {"coordinates": [80.200507, 13.094631], "type": "Point"}, "stationName": "Anna Nagar 18th Main Road"}, {"name": "Bike Docking Station Anna Nagar 21st Main Road", "id": "953729d0-16d9-4878-bf16-c1e23d024ba9", "location": {"coordinates": [80.2064, 13.09123], "type": "Point"}, "stationName": "Anna Nagar 21st Main Road"}, {"name": "Bike Docking Station Anna Nagar East \u2013 Metro Station", "id": "953729d0-16d9-4878-bf16-c1e23d024ba9", "location": {"coordinates": [80.219333, 13.084387], "type": "Point"}, "stationName": "Anna Nagar East \u2013 Metro Station"}, {"name": "Bike Docking Station Anna Nagar Tower Park - Feeder", "id": "953729d0-16d9-4878-bf16-c1e23d024ba9", "location": {"coordinates": [80.21303, 13.0866], "type": "Point"}, "stationName": "Anna Nagar Tower Park - Feeder"}, {"name": "Bike Docking Station Anna Nagar, K Block, Opp. Nilgiris", "id": "953729d0-16d9-4878-bf16-c1e23d024ba9", "location": {"coordinates": [80.22368, 13.091091], "type": "Point"}, "stationName": "Anna Nagar, K Block, Opp. Nilgiris"}, {"name": "Bike Docking Station Arumbakkam Metro", "id": "953729d0-16d9-4878-bf16-c1e23d024ba9", "location": {"coordinates": [80.211372, 13.061584], "type": "Point"}, "stationName": "Arumbakkam Metro"}, {"name": "Bike Docking Station ASV Chandilya Tower- Thuraipakkam", "id": "953729d0-16d9-4878-bf16-c1e23d024ba9", "location": {"coordinates": [80.23173, 12.93155], "type": "Point"}, "stationName": "ASV Chandilya Tower- Thuraipakkam"}, {"name": "Bike Docking Station Besant Nagar Rajaji Bavan", "id": "953729d0-16d9-4878-bf16-c1e23d024ba9", "location": {"coordinates": [80.26851, 13.00276], "type": "Point"}, "stationName": "Besant Nagar Rajaji Bavan"}, {"name": "Bike Docking Station Besant Nagar-Govt. Staff Quarters", "id": "953729d0-16d9-4878-bf16-c1e23d024ba9", "location": {"coordinates": [80.26704, 12.99949], "type": "Point"}, "stationName": "Besant Nagar-Govt. Staff Quarters"}, {"name": "Bike Docking Station Boat Club Road", "id": "953729d0-16d9-4878-bf16-c1e23d024ba9", "location": {"coordinates": [80.251545, 13.027666], "type": "Point"}, "stationName": "Boat Club Road"}, {"name": "Bike Docking Station Bouganvillea Park Anna Nagar East - Feeder", "id": "953729d0-16d9-4878-bf16-c1e23d024ba9", "location": {"coordinates": [80.22086, 13.09215], "type": "Point"}, "stationName": "Bouganvillea Park Anna Nagar East - Feeder"}, {"name": "Bike Docking Station C.S.I. Kalyani Multispeciality Hospital", "id": "953729d0-16d9-4878-bf16-c1e23d024ba9", "location": {"coordinates": [80.273, 13.043529], "type": "Point"}, "stationName": "C.S.I. Kalyani Multispeciality Hospital"}, {"name": "Bike Docking Station CMS-Pantheon Road - Egmore", "id": "953729d0-16d9-4878-bf16-c1e23d024ba9", "location": {"coordinates": [80.264987, 13.076039], "type": "Point"}, "stationName": "CMS-Pantheon Road - Egmore"}, {"name": "Bike Docking Station Crescent Ground", "id": "953729d0-16d9-4878-bf16-c1e23d024ba9", "location": {"coordinates": [80.22009, 13.08097], "type": "Point"}, "stationName": "Crescent Ground"}, {"name": "Bike Docking Station DR.MGR Janaki College, Adyar", "id": "953729d0-16d9-4878-bf16-c1e23d024ba9", "location": {"coordinates": [80.2597, 13.0159], "type": "Point"}, "stationName": "DR.MGR Janaki College, Adyar"}, {"name": "Bike Docking Station Egmore Metro", "id": "953729d0-16d9-4878-bf16-c1e23d024ba9", "location": {"coordinates": [80.261641, 13.079453], "type": "Point"}, "stationName": "Egmore Metro"}, {"name": "Bike Docking Station Ekkatuthangal Metro", "id": "953729d0-16d9-4878-bf16-c1e23d024ba9", "location": {"coordinates": [80.2053988, 13.01683], "type": "Point"}, "stationName": "Ekkatuthangal Metro"}, {"name": "Bike Docking Station Five Furlong Road Velachery", "id": "953729d0-16d9-4878-bf16-c1e23d024ba9", "location": {"coordinates": [80.2158165, 12.9979039], "type": "Point"}, "stationName": "Five Furlong Road Velachery"}, {"name": "Bike Docking Station Foot Over Bridge Karapakkam", "id": "953729d0-16d9-4878-bf16-c1e23d024ba9", "location": {"coordinates": [80.2330756, 12.9337522], "type": "Point"}, "stationName": "Foot Over Bridge Karapakkam"}, {"name": "Bike Docking Station Foot Over Bridge Ushera Residences, Chemmanchery", "id": "953729d0-16d9-4878-bf16-c1e23d024ba9", "location": {"coordinates": [80.227103, 12.876967], "type": "Point"}, "stationName": "Foot Over Bridge Ushera Residences, Chemmanchery"}, {"name": "Bike Docking Station GCC Multi Level Parking Pondy Bazar", "id": "953729d0-16d9-4878-bf16-c1e23d024ba9", "location": {"coordinates": [80.239792, 13.040392], "type": "Point"}, "stationName": "GCC Multi Level Parking Pondy Bazar"}, {"name": "Bike Docking Station GCC Park Porur", "id": "953729d0-16d9-4878-bf16-c1e23d024ba9", "location": {"coordinates": [80.168246, 13.029819], "type": "Point"}, "stationName": "GCC Park Porur"}, {"name": "Bike Docking Station GCC Rippon Building", "id": "953729d0-16d9-4878-bf16-c1e23d024ba9", "location": {"coordinates": [80.271195, 13.08305], "type": "Point"}, "stationName": "GCC Rippon Building"}, {"name": "Bike Docking Station GCC Zone 4 - Tondiarpet", "id": "953729d0-16d9-4878-bf16-c1e23d024ba9", "location": {"coordinates": [80.286489, 13.1210289], "type": "Point"}, "stationName": "GCC Zone 4 - Tondiarpet"}, {"name": "Bike Docking Station GCC Zone 5 Office - Near Basin Bridge", "id": "953729d0-16d9-4878-bf16-c1e23d024ba9", "location": {"coordinates": [80.274709, 13.104479], "type": "Point"}, "stationName": "GCC Zone 5 Office - Near Basin Bridge"}, {"name": "Bike Docking Station Greater Chennai Corporation - Zone 13 Adayar", "id": "953729d0-16d9-4878-bf16-c1e23d024ba9", "location": {"coordinates": [80.2572022, 13.0053297], "type": "Point"}, "stationName": "Greater Chennai Corporation - Zone 13 Adayar"}, {"name": "Bike Docking Station Greater Chennai Corporation Park - Zone 13 Adayar", "id": "953729d0-16d9-4878-bf16-c1e23d024ba9", "location": {"coordinates": [80.2558722, 12.9948371], "type": "Point"}, "stationName": "Greater Chennai Corporation Park - Zone 13 Adayar"}, {"name": "Bike Docking Station Greater Chennai Corporation Park OMR(Tecci Park)", "id": "953729d0-16d9-4878-bf16-c1e23d024ba9", "location": {"coordinates": [80.228592, 12.91046], "type": "Point"}, "stationName": "Greater Chennai Corporation Park OMR(Tecci Park)"}, {"name": "Bike Docking Station Greater Chennai Corporation Zone 13 Unit 38 Thiruvanmiyur", "id": "953729d0-16d9-4878-bf16-c1e23d024ba9", "location": {"coordinates": [80.25769, 12.9846], "type": "Point"}, "stationName": "Greater Chennai Corporation Zone 13 Unit 38 Thiruvanmiyur"}, {"name": "Bike Docking Station Greenways MRTS", "id": "953729d0-16d9-4878-bf16-c1e23d024ba9", "location": {"coordinates": [80.2529244, 13.0210733], "type": "Point"}, "stationName": "Greenways MRTS"}, {"name": "Bike Docking Station Harleys Road Kilpauk, Opp to Indian Bank", "id": "953729d0-16d9-4878-bf16-c1e23d024ba9", "location": {"coordinates": [80.242151, 13.082823], "type": "Point"}, "stationName": "Harleys Road Kilpauk, Opp to Indian Bank"}, {"name": "Bike Docking Station Harrington Road", "id": "953729d0-16d9-4878-bf16-c1e23d024ba9", "location": {"coordinates": [80.2372766, 13.0692792], "type": "Point"}, "stationName": "Harrington Road"}, {"name": "Bike Docking Station Independence park nanganallur", "id": "953729d0-16d9-4878-bf16-c1e23d024ba9", "location": {"coordinates": [80.186183, 12.980832], "type": "Point"}, "stationName": "Independence park nanganallur"}, {"name": "Bike Docking Station Indira Nagar MRTS", "id": "953729d0-16d9-4878-bf16-c1e23d024ba9", "location": {"coordinates": [80.249537, 12.996176], "type": "Point"}, "stationName": "Indira Nagar MRTS"}, {"name": "Bike Docking Station Infoview Karapakkam", "id": "953729d0-16d9-4878-bf16-c1e23d024ba9", "location": {"coordinates": [80.229172, 12.915149], "type": "Point"}, "stationName": "Infoview Karapakkam"}, {"name": "Bike Docking Station Jeeva Park - GN Chetty Road", "id": "953729d0-16d9-4878-bf16-c1e23d024ba9", "location": {"coordinates": [80.23765, 13.04379], "type": "Point"}, "stationName": "Jeeva Park - GN Chetty Road"}, {"name": "Bike Docking Station Kandaswamy College - Feeder", "id": "953729d0-16d9-4878-bf16-c1e23d024ba9", "location": {"coordinates": [80.21813, 13.08598], "type": "Point"}, "stationName": "Kandaswamy College - Feeder"}, {"name": "Bike Docking Station Kasturba Nagar MRTS", "id": "953729d0-16d9-4878-bf16-c1e23d024ba9", "location": {"coordinates": [80.247514, 13.005941], "type": "Point"}, "stationName": "Kasturba Nagar MRTS"}, {"name": "Bike Docking Station Kilpauk Metro", "id": "953729d0-16d9-4878-bf16-c1e23d024ba9", "location": {"coordinates": [80.24271, 13.07749], "type": "Point"}, "stationName": "Kilpauk Metro"}, {"name": "Bike Docking Station KoyambeduMetro", "id": "953729d0-16d9-4878-bf16-c1e23d024ba9", "location": {"coordinates": [80.195201, 13.073983], "type": "Point"}, "stationName": "KoyambeduMetro"}, {"name": "Bike Docking Station Lakshmi Nagar E seva & Childrens Park - Nanganallur", "id": "953729d0-16d9-4878-bf16-c1e23d024ba9", "location": {"coordinates": [80.187337, 12.977742], "type": "Point"}, "stationName": "Lakshmi Nagar E seva & Childrens Park - Nanganallur"}, {"name": "Bike Docking Station LIC Metro B3-Mount Rd.", "id": "953729d0-16d9-4878-bf16-c1e23d024ba9", "location": {"coordinates": [80.2658559, 13.0642327], "type": "Point"}, "stationName": "LIC Metro B3-Mount Rd."}, {"name": "Bike Docking Station Loyola College, Tank Bund Road", "id": "953729d0-16d9-4878-bf16-c1e23d024ba9", "location": {"coordinates": [80.2358169, 13.0630541], "type": "Point"}, "stationName": "Loyola College, Tank Bund Road"}, {"name": "Bike Docking Station Mandaveli MRTS", "id": "953729d0-16d9-4878-bf16-c1e23d024ba9", "location": {"coordinates": [80.2605536, 13.0268199], "type": "Point"}, "stationName": "Mandaveli MRTS"}, {"name": "Bike Docking Station Mangal Eri Park - Ambattur", "id": "953729d0-16d9-4878-bf16-c1e23d024ba9", "location": {"coordinates": [80.1765869, 13.0881119], "type": "Point"}, "stationName": "Mangal Eri Park - Ambattur"}, {"name": "Bike Docking Station Mannady Metro", "id": "953729d0-16d9-4878-bf16-c1e23d024ba9", "location": {"coordinates": [80.2863415, 13.0959603], "type": "Point"}, "stationName": "Mannady Metro"}, {"name": "Bike Docking Station Marg Junction Mall Near OMR Road Karapakkam", "id": "953729d0-16d9-4878-bf16-c1e23d024ba9", "location": {"coordinates": [80.23025, 12.9224], "type": "Point"}, "stationName": "Marg Junction Mall Near OMR Road Karapakkam"}, {"name": "Bike Docking Station Marina Beach \u2013 Avvaiyar Statue", "id": "953729d0-16d9-4878-bf16-c1e23d024ba9", "location": {"coordinates": [80.28072, 13.046934], "type": "Point"}, "stationName": "Marina Beach \u2013 Avvaiyar Statue"}, {"name": "Bike Docking Station Marina Beach \u2013 Behind Labour Statue", "id": "953729d0-16d9-4878-bf16-c1e23d024ba9", "location": {"coordinates": [80.283813, 13.063503], "type": "Point"}, "stationName": "Marina Beach \u2013 Behind Labour Statue"}, {"name": "Bike Docking Station Marina Beach \u2013 Near Lighthouse", "id": "953729d0-16d9-4878-bf16-c1e23d024ba9", "location": {"coordinates": [80.279793, 13.041696], "type": "Point"}, "stationName": "Marina Beach \u2013 Near Lighthouse"}, {"name": "Bike Docking Station Marina Beach \u2013 Opp University of Madras", "id": "953729d0-16d9-4878-bf16-c1e23d024ba9", "location": {"coordinates": [80.28427, 13.06685], "type": "Point"}, "stationName": "Marina Beach \u2013 Opp University of Madras"}, {"name": "Bike Docking Station Marina Beach \u2013 Swimming Pool", "id": "953729d0-16d9-4878-bf16-c1e23d024ba9", "location": {"coordinates": [80.28276, 13.05883], "type": "Point"}, "stationName": "Marina Beach \u2013 Swimming Pool"}, {"name": "Bike Docking Station Marina Beach - Water kiosk", "id": "953729d0-16d9-4878-bf16-c1e23d024ba9", "location": {"coordinates": [80.281502, 13.052181], "type": "Point"}, "stationName": "Marina Beach - Water kiosk"}, {"name": "Bike Docking Station Mathura Flats, Anna Nagar West", "id": "953729d0-16d9-4878-bf16-c1e23d024ba9", "location": {"coordinates": [80.18565, 13.08811], "type": "Point"}, "stationName": "Mathura Flats, Anna Nagar West"}, {"name": "Bike Docking Station Meena Kampala Arcade Pedestrian Plaza", "id": "953729d0-16d9-4878-bf16-c1e23d024ba9", "location": {"coordinates": [80.243081, 13.039872], "type": "Point"}, "stationName": "Meena Kampala Arcade Pedestrian Plaza"}, {"name": "Bike Docking Station Nageswara Park Mylapore", "id": "953729d0-16d9-4878-bf16-c1e23d024ba9", "location": {"coordinates": [80.263343, 13.037345], "type": "Point"}, "stationName": "Nageswara Park Mylapore"}, {"name": "Bike Docking Station Nandanam Metro ( B1 Entrance )", "id": "953729d0-16d9-4878-bf16-c1e23d024ba9", "location": {"coordinates": [80.239658, 13.030812], "type": "Point"}, "stationName": "Nandanam Metro ( B1 Entrance )"}, {"name": "Bike Docking Station Near Sanmar (TVS Guest House)- Karapakkam", "id": "953729d0-16d9-4878-bf16-c1e23d024ba9", "location": {"coordinates": [80.229943, 12.918108], "type": "Point"}, "stationName": "Near Sanmar (TVS Guest House)- Karapakkam"}, {"name": "Bike Docking Station Nehru Park Metro", "id": "953729d0-16d9-4878-bf16-c1e23d024ba9", "location": {"coordinates": [80.25057, 13.07867], "type": "Point"}, "stationName": "Nehru Park Metro"}, {"name": "Bike Docking Station NICM MBA College, 4th Avenue Road", "id": "953729d0-16d9-4878-bf16-c1e23d024ba9", "location": {"coordinates": [80.20041, 13.08294], "type": "Point"}, "stationName": "NICM MBA College, 4th Avenue Road"}, {"name": "Bike Docking Station ONGC Residential Complex, Park Road, Anna Nagar West", "id": "953729d0-16d9-4878-bf16-c1e23d024ba9", "location": {"coordinates": [80.19296, 13.09087], "type": "Point"}, "stationName": "ONGC Residential Complex, Park Road, Anna Nagar West"}, {"name": "Bike Docking Station PT Rajan Road KK Nagar CPWD Staff Quaters", "id": "953729d0-16d9-4878-bf16-c1e23d024ba9", "location": {"coordinates": [80.2045025, 13.0370659], "type": "Point"}, "stationName": "PT Rajan Road KK Nagar CPWD Staff Quaters"}, {"name": "Bike Docking Station PT Rajan Road Opp\u00a0to Aksharam Flats", "id": "953729d0-16d9-4878-bf16-c1e23d024ba9", "location": {"coordinates": [80.210729, 13.044206], "type": "Point"}, "stationName": "PT Rajan Road Opp\u00a0to Aksharam Flats"}, {"name": "Bike Docking Station QMC Opp Taj Connemara Hotel", "id": "953729d0-16d9-4878-bf16-c1e23d024ba9", "location": {"coordinates": [80.2619479, 13.0634004], "type": "Point"}, "stationName": "QMC Opp Taj Connemara Hotel"}, {"name": "Bike Docking Station Raja Muthaih hall, Egmore", "id": "953729d0-16d9-4878-bf16-c1e23d024ba9", "location": {"coordinates": [80.260383, 13.065167], "type": "Point"}, "stationName": "Raja Muthaih hall, Egmore"}, {"name": "Bike Docking Station Ramanujam IT Park", "id": "953729d0-16d9-4878-bf16-c1e23d024ba9", "location": {"coordinates": [80.245089, 12.991958], "type": "Point"}, "stationName": "Ramanujam IT Park"}, {"name": "Bike Docking Station Sea shore Apartments Thiruvanmiyur Beach", "id": "953729d0-16d9-4878-bf16-c1e23d024ba9", "location": {"coordinates": [80.2657359, 12.9770356], "type": "Point"}, "stationName": "Sea shore Apartments Thiruvanmiyur Beach"}, {"name": "Bike Docking Station Shenoy Nagar Metro", "id": "953729d0-16d9-4878-bf16-c1e23d024ba9", "location": {"coordinates": [80.225467, 13.079888], "type": "Point"}, "stationName": "Shenoy Nagar Metro"}, {"name": "Bike Docking Station Shenoy Nagar Metro - Opp to RDC", "id": "953729d0-16d9-4878-bf16-c1e23d024ba9", "location": {"coordinates": [80.224845, 13.077475], "type": "Point"}, "stationName": "Shenoy Nagar Metro - Opp to RDC"}, {"name": "Bike Docking Station Sivagnanam Street", "id": "953729d0-16d9-4878-bf16-c1e23d024ba9", "location": {"coordinates": [80.2358711, 13.0397139], "type": "Point"}, "stationName": "Sivagnanam Street"}, {"name": "Bike Docking Station Sivan Park KK Nagar", "id": "953729d0-16d9-4878-bf16-c1e23d024ba9", "location": {"coordinates": [80.205026, 13.041149], "type": "Point"}, "stationName": "Sivan Park KK Nagar"}, {"name": "Bike Docking Station Sri Ramakrishna Mission Higher Secondary School", "id": "953729d0-16d9-4878-bf16-c1e23d024ba9", "location": {"coordinates": [80.23416, 13.04114], "type": "Point"}, "stationName": "Sri Ramakrishna Mission Higher Secondary School"}, {"name": "Bike Docking Station St.Thomas Mount Metro", "id": "953729d0-16d9-4878-bf16-c1e23d024ba9", "location": {"coordinates": [80.1969622, 12.9948935], "type": "Point"}, "stationName": "St.Thomas Mount Metro"}, {"name": "Bike Docking Station The Gardenia, 4th avenue Road", "id": "953729d0-16d9-4878-bf16-c1e23d024ba9", "location": {"coordinates": [80.20655, 13.08261], "type": "Point"}, "stationName": "The Gardenia, 4th avenue Road"}, {"name": "Bike Docking Station Thirumangalam Metro North", "id": "953729d0-16d9-4878-bf16-c1e23d024ba9", "location": {"coordinates": [80.201049, 13.085317], "type": "Point"}, "stationName": "Thirumangalam Metro North"}, {"name": "Bike Docking Station Thiruvanmiyur MRTS", "id": "953729d0-16d9-4878-bf16-c1e23d024ba9", "location": {"coordinates": [80.251303, 12.988922], "type": "Point"}, "stationName": "Thiruvanmiyur MRTS"}, {"name": "Bike Docking Station TNHB Flats, Ambattur Ind Estate Road", "id": "953729d0-16d9-4878-bf16-c1e23d024ba9", "location": {"coordinates": [80.19461, 13.08718], "type": "Point"}, "stationName": "TNHB Flats, Ambattur Ind Estate Road"}, {"name": "Bike Docking Station Valliammal School - Feeder", "id": "953729d0-16d9-4878-bf16-c1e23d024ba9", "location": {"coordinates": [80.22371, 13.08515], "type": "Point"}, "stationName": "Valliammal School - Feeder"}, {"name": "Bike Docking Station Writer's Cafe Taramani", "id": "953729d0-16d9-4878-bf16-c1e23d024ba9", "location": {"coordinates": [80.250203, 12.986138], "type": "Point"}, "stationName": "Writer's Cafe Taramani"}]